prep,strat,split,emb_dim,batch_size,depth,trainacc,testacc,tp,tn,fp,fn,recall,precision,epoch,epochtime,besttime,trainingtime
APS,pw,1,8,12,0,92.62,74.67,25,31,7,12,67.57,78.12,63,4.81,114.23,302.97
APS,pw,2,8,12,0,93.16,84.95,41,38,8,6,87.23,83.67,63,4.83,91.57,304.33
APS,pw,3,8,12,0,90.65,79.75,14,49,7,9,60.87,66.67,60,5.08,59.50,305.03
APS,pw,4,8,12,0,86.96,83.33,26,39,8,5,83.87,76.47,64,4.60,36.57,294.38
APS,pw,5,8,12,0,94.46,78.67,48,11,8,8,85.71,85.71,67,4.48,214.57,300.01
APS,rand,1,8,12,0,97.85,90.67,33,35,5,2,94.29,86.84,61,4.99,299.63,304.43
APS,rand,2,8,12,0,96.92,88.00,31,35,5,4,88.57,86.11,60,5.05,302.79,302.79
APS,rand,3,8,12,0,97.28,81.16,23,33,8,5,82.14,74.19,59,5.09,198.74,300.11
APS,rand,4,8,12,0,93.21,92.11,34,36,4,2,94.44,89.47,63,4.82,163.56,303.89
APS,rand,5,8,12,0,96.33,86.30,28,35,6,4,87.50,82.35,64,4.72,212.03,302.12
ANS,pw,1,8,12,0,87.38,80.00,31,29,9,6,83.78,77.50,65,4.61,36.25,299.96
ANS,pw,2,8,12,0,89.25,90.32,47,37,9,0,100.00,83.93,65,4.65,73.38,302.11
ANS,pw,3,8,12,0,97.20,72.15,1,56,0,22,4.35,100.00,60,5.09,305.47,305.47
ANS,pw,4,8,12,0,83.85,71.79,10,46,1,21,32.26,90.91,63,4.55,22.22,286.65
ANS,pw,5,8,12,0,87.69,77.33,53,5,14,3,94.64,79.10,66,4.59,62.80,303.20
ANS,rand,1,8,12,0,95.08,88.00,32,34,6,3,91.43,84.21,61,5.00,269.74,305.13
ANS,rand,2,8,12,0,96.31,90.67,31,37,3,4,88.57,91.18,61,4.97,273.33,303.06
ANS,rand,3,8,12,0,89.43,84.06,24,34,7,4,85.71,77.42,59,5.10,49.05,300.94
ANS,rand,4,8,12,0,93.83,89.47,32,36,4,4,88.89,88.89,64,4.76,123.29,304.93
ANS,rand,5,8,12,0,97.86,87.67,30,34,7,2,93.75,81.08,65,4.66,233.21,302.77
Ext,pw,1,8,12,0,89.54,80.00,34,26,12,3,91.89,73.91,51,5.89,34.12,300.15
Ext,pw,2,8,12,0,88.93,73.12,47,21,25,0,100.00,65.28,50,6.24,299.83,311.90
Ext,pw,3,8,12,0,91.59,82.28,16,49,7,7,69.57,69.57,50,6.37,80.81,318.74
Ext,pw,4,8,12,0,77.95,88.46,27,42,5,4,87.10,84.38,54,5.61,33.83,303.12
Ext,pw,5,8,12,0,87.69,68.00,38,13,6,18,67.86,86.36,55,5.51,49.15,303.20
Ext,rand,1,8,12,0,96.00,93.33,33,37,3,2,94.29,91.67,50,6.37,260.72,318.71
Ext,rand,2,8,12,0,92.62,90.67,32,36,4,3,91.43,88.89,50,6.52,89.35,325.85
Ext,rand,3,8,12,0,92.15,85.51,23,36,5,5,82.14,82.14,50,6.28,73.80,313.88
Ext,rand,4,8,12,0,86.73,85.53,29,36,4,7,80.56,87.88,50,6.10,41.79,305.22
Ext,rand,5,8,12,0,91.74,89.04,29,36,5,3,90.62,85.29,51,5.88,153.99,300.05
Low,pw,1,8,12,0,78.46,64.00,16,32,6,21,43.24,72.73,52,5.87,28.32,305.49
Low,pw,2,8,12,0,92.83,91.40,47,38,8,0,100.00,85.45,50,6.09,233.46,304.72
Low,pw,3,8,12,0,88.16,74.68,3,56,0,20,13.04,100.00,50,6.48,68.00,323.82
Low,pw,4,8,12,0,78.26,82.05,23,41,6,8,74.19,79.31,52,5.82,28.59,302.39
Low,pw,5,8,12,0,92.00,76.00,45,12,7,11,80.36,86.54,54,5.61,117.85,303.17
Low,rand,1,8,12,0,93.85,93.33,33,37,3,2,94.29,91.67,50,6.43,256.89,321.70
Low,rand,2,8,12,0,93.23,89.33,30,37,3,5,85.71,90.91,50,6.46,271.59,323.23
Low,rand,3,8,12,0,94.56,82.61,23,34,7,5,82.14,76.67,50,6.22,274.22,310.89
Low,rand,4,8,12,0,95.06,86.84,34,32,8,2,94.44,80.95,50,6.01,282.38,300.40
Low,rand,5,8,12,0,95.11,87.67,28,36,5,4,87.50,84.85,51,5.94,302.94,302.94
Raw,pw,1,8,12,0,95.69,76.00,32,25,13,5,86.49,71.11,63,4.83,183.35,304.08
Raw,pw,2,8,12,0,85.67,89.25,47,36,10,0,100.00,82.46,61,4.97,33.98,303.16
Raw,pw,3,8,12,0,88.16,73.42,2,56,0,21,8.70,100.00,56,5.37,40.48,300.73
Raw,pw,4,8,12,0,87.58,71.79,24,32,15,7,77.42,61.54,63,4.62,22.20,290.92
Raw,pw,5,8,12,0,91.08,80.00,55,5,14,1,98.21,79.71,66,4.57,68.63,301.83
Raw,rand,1,8,12,0,96.62,89.33,31,36,4,4,88.57,88.57,58,5.18,279.84,300.26
Raw,rand,2,8,12,0,94.46,93.33,32,38,2,3,91.43,94.12,59,5.16,294.43,304.46
Raw,rand,3,8,12,0,93.96,85.51,23,36,5,5,82.14,82.14,59,5.18,105.68,305.35
Raw,rand,4,8,12,0,95.37,89.47,33,35,5,3,91.67,86.84,62,4.86,194.43,301.36
Raw,rand,5,8,12,0,94.50,86.30,30,33,8,2,93.75,78.95,64,4.74,123.70,303.34
APS,pw,1,8,12,0,96.92,74.67,21,35,3,16,56.76,87.50,63,4.84,299.63,304.64
APS,pw,2,8,12,0,93.49,63.44,20,39,7,27,42.55,74.07,63,4.79,78.40,302.01
APS,pw,3,8,12,0,98.13,78.48,13,49,7,10,56.52,65.00,63,4.78,301.19,301.19
APS,pw,4,8,12,0,85.09,82.05,26,38,9,5,83.87,74.29,66,4.53,29.65,298.86
APS,pw,5,8,12,0,90.15,77.33,55,3,16,1,98.21,77.46,66,4.61,54.55,304.41
APS,rand,1,8,12,0,96.00,92.00,33,36,4,2,94.29,89.19,59,5.14,148.29,303.26
APS,rand,2,8,12,0,94.46,89.33,32,35,5,3,91.43,86.49,60,5.05,155.44,302.94
APS,rand,3,8,12,0,96.07,82.61,23,34,7,5,82.14,76.67,64,4.71,301.30,301.30
APS,rand,4,8,12,0,95.37,89.47,33,35,5,3,91.67,86.84,63,4.82,177.16,303.74
APS,rand,5,8,12,0,95.11,87.67,26,38,3,6,81.25,89.66,63,4.82,115.68,303.56
ANS,pw,1,8,12,0,95.08,60.00,13,32,6,24,35.14,68.42,62,4.90,182.48,303.49
ANS,pw,2,8,12,0,97.39,89.25,44,39,7,3,93.62,86.27,65,4.66,257.54,302.88
ANS,pw,3,8,12,0,88.47,73.42,4,54,2,19,17.39,66.67,62,4.86,53.32,301.26
ANS,pw,4,8,12,0,79.19,75.64,21,38,9,10,67.74,70.00,61,4.48,21.31,273.57
ANS,pw,5,8,12,0,87.69,77.33,53,5,14,3,94.64,79.10,66,4.59,62.80,303.20
ANS,rand,1,8,12,0,98.15,89.33,31,36,4,4,88.57,88.57,57,5.32,303.20,303.20
ANS,rand,2,8,12,0,95.69,90.67,30,38,2,5,85.71,93.75,61,4.96,245.11,302.64
ANS,rand,3,8,12,0,98.49,84.06,24,34,7,4,85.71,77.42,64,4.74,299.06,303.54
ANS,rand,4,8,12,0,95.06,86.84,34,32,8,2,94.44,80.95,64,4.76,227.24,304.62
ANS,rand,5,8,12,0,93.58,84.93,25,37,4,7,78.12,86.21,64,4.76,128.23,304.50
Ext,pw,1,8,12,0,85.85,73.33,20,35,3,17,54.05,86.96,50,6.03,107.29,301.49
Ext,pw,2,8,12,0,95.11,83.87,47,31,15,0,100.00,75.81,50,6.11,305.58,305.58
Ext,pw,3,8,12,0,89.41,82.28,13,52,4,10,56.52,76.47,50,6.09,63.95,304.65
Ext,pw,4,8,12,0,95.34,80.77,27,36,11,4,87.10,71.05,53,5.76,252.31,305.24
Ext,pw,5,8,12,0,93.54,72.00,43,11,8,13,76.79,84.31,54,5.60,207.62,302.51
Ext,rand,1,8,12,0,92.00,92.00,34,35,5,1,97.14,87.18,50,6.68,294.70,334.21
Ext,rand,2,8,12,0,90.15,92.00,34,35,5,1,97.14,87.18,50,6.16,94.75,307.86
Ext,rand,3,8,12,0,93.35,85.51,23,36,5,5,82.14,82.14,50,6.07,108.23,303.54
Ext,rand,4,8,12,0,96.91,86.84,33,33,7,3,91.67,82.50,52,5.87,293.12,305.27
Ext,rand,5,8,12,0,91.13,89.04,29,36,5,3,90.62,85.29,51,5.94,88.40,302.91
Low,pw,1,8,12,0,89.85,77.33,35,23,15,2,94.59,70.00,50,6.26,116.13,313.22
Low,pw,2,8,12,0,93.16,86.02,47,33,13,0,100.00,78.33,51,5.98,251.29,305.20
Low,pw,3,8,12,0,92.21,82.28,10,55,1,13,43.48,90.91,50,6.10,150.96,305.23
Low,pw,4,8,12,0,87.58,75.64,16,43,4,15,51.61,80.00,51,5.89,86.71,300.32
Low,pw,5,8,12,0,88.31,73.33,44,11,8,12,78.57,84.62,54,5.62,83.24,303.73
Low,rand,1,8,12,0,92.92,90.67,32,36,4,3,91.43,88.89,50,6.58,321.94,328.91
Low,rand,2,8,12,0,94.46,88.00,31,35,5,4,88.57,86.11,50,6.30,302.83,315.23
Low,rand,3,8,12,0,92.15,82.61,24,33,8,4,85.71,75.00,51,5.99,113.67,305.68
Low,rand,4,8,12,0,95.68,88.16,35,32,8,1,97.22,81.40,50,6.04,302.08,302.08
Low,rand,5,8,12,0,92.66,91.78,31,36,5,1,96.88,86.11,51,5.99,71.44,305.47
Raw,pw,1,8,12,0,92.92,72.00,19,35,3,18,51.35,86.36,61,4.95,104.11,301.84
Raw,pw,2,8,12,0,94.79,66.67,44,18,28,3,93.62,61.11,63,4.80,108.14,302.54
Raw,pw,3,8,12,0,95.02,79.75,10,53,3,13,43.48,76.92,60,5.01,280.65,300.60
Raw,pw,4,8,12,0,49.38,60.26,0,47,0,31,0.00,0.00,61,4.71,4.16,287.28
Raw,pw,5,8,12,0,92.31,68.00,44,7,12,12,78.57,78.57,66,4.61,73.96,304.05
Raw,rand,1,8,12,0,95.69,90.67,33,35,5,2,94.29,86.84,57,5.32,195.31,303.22
Raw,rand,2,8,12,0,96.00,92.00,32,37,3,3,91.43,91.43,60,5.03,178.25,301.57
Raw,rand,3,8,12,0,96.07,85.51,23,36,5,5,82.14,82.14,62,4.84,193.75,300.20
Raw,rand,4,8,12,0,97.22,90.79,33,36,4,3,91.67,89.19,63,4.81,278.01,302.78
Raw,rand,5,8,12,0,96.33,86.30,25,38,3,7,78.12,89.29,62,4.87,157.11,302.05
APS,pw,1,8,12,0,88.62,60.00,26,19,19,11,70.27,57.78,62,4.55,30.64,282.37
APS,pw,2,8,12,0,93.49,93.55,47,40,6,0,100.00,88.68,66,4.59,283.41,302.77
APS,pw,3,8,12,0,89.10,79.75,13,50,6,10,56.52,68.42,60,5.04,39.05,302.28
APS,pw,4,8,12,0,89.13,80.77,25,38,9,6,80.65,73.53,67,4.45,39.43,298.39
APS,pw,5,8,12,0,89.23,73.33,55,0,19,1,98.21,74.32,69,4.41,56.81,304.05
APS,rand,1,8,12,0,92.62,92.00,33,36,4,2,94.29,89.19,63,4.79,118.74,301.57
APS,rand,2,8,12,0,94.46,93.33,32,38,2,3,91.43,94.12,62,4.88,131.10,302.48
APS,rand,3,8,12,0,98.79,85.51,24,35,6,4,85.71,80.00,65,4.62,258.13,300.32
APS,rand,4,8,12,0,94.44,86.84,33,33,7,3,91.67,82.50,64,4.73,259.55,302.78
APS,rand,5,8,12,0,90.83,87.67,29,35,6,3,90.62,82.86,65,4.63,49.64,301.15
ANS,pw,1,8,12,0,97.54,76.00,34,23,15,3,91.89,69.39,68,4.45,275.49,302.83
ANS,pw,2,8,12,0,85.34,89.25,47,36,10,0,100.00,82.46,66,4.51,43.60,297.91
ANS,pw,3,8,12,0,90.65,74.68,7,52,4,16,30.43,63.64,62,4.86,291.36,301.16
ANS,pw,4,8,12,0,95.65,73.08,16,41,6,15,51.61,72.73,65,4.36,126.57,283.65
ANS,rand,1,8,12,0,96.92,93.33,33,37,3,2,94.29,91.67,63,4.81,244.41,303.08
ANS,rand,2,8,12,0,95.69,90.67,32,36,4,3,91.43,88.89,63,4.82,206.38,303.78
ANS,rand,3,8,12,0,95.47,82.61,24,33,8,4,85.71,75.00,65,4.65,130.60,302.54
ANS,rand,4,8,12,0,93.21,89.47,34,34,6,2,94.44,85.00,65,4.64,133.64,301.77
ANS,rand,5,8,12,0,95.11,87.67,29,35,6,3,90.62,82.86,65,4.66,190.57,302.98
Ext,pw,1,8,12,0,91.69,80.00,33,27,11,4,89.19,75.00,54,5.62,76.66,303.38
Ext,pw,2,8,12,0,89.90,93.55,47,40,6,0,100.00,88.68,51,5.96,298.14,304.21
Ext,pw,3,8,12,0,95.02,84.81,16,51,5,7,69.57,76.19,50,6.04,186.46,301.76
Ext,pw,4,8,12,0,89.44,80.77,24,39,8,7,77.42,75.00,52,5.81,40.41,302.22
Ext,pw,5,8,12,0,88.31,77.33,44,14,5,12,78.57,89.80,55,5.53,58.98,304.17
Ext,rand,1,8,12,0,96.62,92.00,33,36,4,2,94.29,89.19,51,5.97,274.20,304.23
Ext,rand,2,8,12,0,94.15,89.33,30,37,3,5,85.71,90.91,50,6.01,269.62,300.39
Ext,rand,3,8,12,0,89.43,84.06,22,36,5,6,78.57,81.48,51,5.91,45.66,301.60
Ext,rand,4,8,12,0,91.05,85.53,33,32,8,3,91.67,80.49,52,5.87,133.47,305.34
Ext,rand,5,8,12,0,88.38,89.04,30,35,6,2,93.75,83.33,50,6.01,58.96,300.44
Low,pw,1,8,12,0,92.62,76.00,25,32,6,12,67.57,80.65,53,5.69,209.72,301.82
Low,pw,2,8,12,0,87.62,76.34,47,24,22,0,100.00,68.12,52,5.81,78.13,302.00
Low,pw,3,8,12,0,87.54,84.81,16,51,5,7,69.57,76.19,50,6.22,41.64,311.11
Low,pw,4,8,12,0,85.71,79.49,21,41,6,10,67.74,77.78,54,5.62,43.04,303.37
Low,pw,5,8,12,0,85.54,74.67,43,13,6,13,76.79,87.76,54,5.65,54.55,304.86
Low,rand,1,8,12,0,86.46,89.33,33,34,6,2,94.29,84.62,50,6.02,81.90,300.82
Low,rand,2,8,12,0,84.92,90.67,33,35,5,2,94.29,86.84,50,6.32,55.30,315.75
Low,rand,3,8,12,0,94.56,82.61,23,34,7,5,82.14,76.67,51,5.90,259.96,300.67
Low,rand,4,8,12,0,92.90,85.53,33,32,8,3,91.67,80.49,50,6.08,235.52,303.87
Low,rand,5,8,12,0,93.27,84.93,27,35,6,5,84.38,81.82,52,5.82,245.35,302.54
Raw,pw,1,8,12,0,89.85,78.67,25,34,4,12,67.57,86.21,66,4.58,39.92,302.53
Raw,pw,2,8,12,0,88.93,93.55,47,40,6,0,100.00,88.68,61,4.82,41.21,294.06
Raw,pw,3,8,12,0,89.41,73.42,2,56,0,21,8.70,100.00,60,5.01,63.90,300.61
Raw,pw,4,8,12,0,86.96,70.51,9,46,1,22,29.03,90.00,63,4.55,31.42,286.82
Raw,pw,5,8,12,0,96.92,77.33,50,8,11,6,89.29,81.97,65,4.68,294.76,303.97
Raw,rand,1,8,12,0,95.38,89.33,34,33,7,1,97.14,82.93,61,4.97,192.44,302.87
Raw,rand,2,8,12,0,95.08,90.67,31,37,3,4,88.57,91.18,62,4.87,267.55,301.89
Raw,rand,3,8,12,0,99.40,86.96,25,35,6,3,89.29,80.65,63,4.79,287.24,301.69
Raw,rand,4,8,12,0,97.53,90.79,33,36,4,3,91.67,89.19,64,4.72,302.34,302.34
Raw,rand,5,8,12,0,97.86,86.30,28,35,6,4,87.50,82.35,62,4.88,302.52,302.52
APS,pw,1,8,12,0,95.69,68.00,19,32,6,18,51.35,76.00,66,4.60,233.22,303.63
APS,pw,3,8,12,0,83.49,79.75,12,51,5,11,52.17,70.59,64,4.71,31.58,301.20
APS,pw,4,8,12,0,90.06,82.05,21,43,4,10,67.74,84.00,68,4.45,38.37,302.44
APS,pw,5,8,12,0,90.77,77.33,47,11,8,9,83.93,85.45,67,4.42,157.66,296.35
APS,rand,1,8,12,0,89.23,93.33,34,36,4,1,97.14,89.47,63,4.84,37.86,304.64
APS,rand,2,8,12,0,96.00,92.00,32,37,3,3,91.43,91.43,63,4.78,190.75,301.30
APS,rand,3,8,12,0,90.63,86.96,23,37,4,5,82.14,85.19,65,4.67,181.24,303.50
APS,rand,4,8,12,0,96.30,78.95,31,29,11,5,86.11,73.81,65,4.66,284.06,302.88
APS,rand,5,8,12,0,87.46,87.67,28,36,5,4,87.50,84.85,64,4.69,195.66,300.18
ANS,pw,1,8,12,0,93.54,77.33,23,35,3,14,62.16,88.46,66,4.52,116.16,298.12
ANS,pw,2,8,12,0,92.83,90.32,47,37,9,0,100.00,83.93,65,4.47,138.31,290.61
ANS,pw,3,8,12,0,87.23,79.75,10,53,3,13,43.48,76.92,63,4.80,37.45,302.23
ANS,pw,4,8,12,0,98.45,67.95,16,37,10,15,51.61,61.54,69,4.38,289.28,302.41
ANS,pw,5,8,12,0,94.46,70.67,50,3,16,6,89.29,75.76,68,4.42,112.32,300.26
ANS,rand,1,8,12,0,96.92,92.00,33,36,4,2,94.29,89.19,62,4.85,192.66,300.84
ANS,rand,2,8,12,0,93.54,90.67,31,37,3,4,88.57,91.18,62,4.92,153.30,305.03
ANS,rand,3,8,12,0,98.19,84.06,25,33,8,3,89.29,75.76,65,4.66,274.56,302.63
ANS,rand,4,8,12,0,97.53,86.84,32,34,6,4,88.89,84.21,66,4.59,257.01,302.90
ANS,rand,5,8,12,0,95.41,86.30,29,34,7,3,90.62,80.56,66,4.58,145.75,302.36
Ext,pw,1,8,12,0,92.92,80.00,33,27,11,4,89.19,75.00,52,5.84,114.62,303.63
Ext,pw,3,8,12,0,93.46,79.75,10,53,3,13,43.48,76.92,50,6.15,158.21,307.61
Ext,pw,4,8,12,0,91.93,78.21,21,40,7,10,67.74,75.00,54,5.61,64.57,303.12
Ext,pw,5,8,12,0,93.54,72.00,43,11,8,13,76.79,84.31,53,5.70,181.44,302.06
Ext,rand,1,8,12,0,95.69,89.33,32,35,5,3,91.43,86.49,50,6.14,306.76,306.76
Ext,rand,2,8,12,0,94.15,88.00,28,38,2,7,80.00,93.33,50,6.08,248.31,303.92
Ext,rand,3,8,12,0,95.17,84.06,22,36,5,6,78.57,81.48,51,5.89,223.55,300.41
Ext,rand,4,8,12,0,96.30,86.84,33,33,7,3,91.67,82.50,51,5.96,257.05,303.94
Ext,rand,5,8,12,0,94.19,87.67,28,36,5,4,87.50,84.85,52,5.86,182.00,304.50
Low,pw,1,8,12,0,91.38,73.33,34,21,17,3,91.89,66.67,53,5.72,101.23,303.24
Low,pw,2,8,12,0,84.04,73.12,47,21,25,0,100.00,65.28,52,5.86,217.91,304.76
Low,pw,3,8,12,0,92.83,79.75,7,56,0,16,30.43,100.00,50,6.17,258.77,308.52
Low,pw,4,8,12,0,81.99,73.08,13,44,3,18,41.94,81.25,53,5.71,33.03,302.41
Low,pw,5,8,12,0,94.77,74.67,43,13,6,13,76.79,87.76,56,5.44,227.52,304.65
Low,rand,1,8,12,0,95.08,92.00,32,37,3,3,91.43,91.43,50,6.07,265.47,303.37
Low,rand,2,8,12,0,94.46,90.67,31,37,3,4,88.57,91.18,50,6.08,272.61,304.11
Low,rand,3,8,12,0,94.56,85.51,24,35,6,4,85.71,80.00,52,5.87,270.10,305.20
Low,rand,4,8,12,0,93.21,85.53,34,31,9,2,94.44,79.07,52,5.82,184.58,302.67
Low,rand,5,8,12,0,89.91,84.93,26,36,5,6,81.25,83.87,51,5.90,270.82,301.08
Raw,pw,1,8,12,0,96.92,74.67,32,24,14,5,86.49,69.57,66,4.55,161.84,300.07
Raw,pw,2,8,12,0,93.16,87.10,47,34,12,0,100.00,79.66,64,4.70,175.54,300.80
Raw,pw,3,8,12,0,94.39,79.75,13,50,6,10,56.52,68.42,61,4.97,232.75,303.27
Raw,pw,4,8,12,0,61.49,60.26,0,47,0,31,0.00,0.00,61,4.49,8.12,273.61
Raw,pw,5,8,12,0,90.15,77.33,52,6,13,4,92.86,80.00,65,4.67,40.52,303.28
Raw,rand,1,8,12,0,95.08,89.33,33,34,6,2,94.29,84.62,61,4.97,187.30,303.01
Raw,rand,2,8,12,0,94.46,92.00,32,37,3,3,91.43,91.43,61,4.94,143.33,301.43
Raw,rand,3,8,12,0,90.94,88.41,24,37,4,4,85.71,85.71,63,4.81,51.93,302.83
Raw,rand,4,8,12,0,90.74,86.84,31,35,5,5,86.11,86.11,63,4.77,112.86,300.56
Raw,rand,5,8,12,0,96.64,84.93,29,33,8,3,90.62,78.38,64,4.69,133.44,300.14
APS,pw,1,8,12,0,92.31,76.00,23,34,4,14,62.16,85.19,65,4.52,89.29,293.82
APS,pw,2,8,12,0,83.39,59.14,12,43,3,35,25.53,80.00,64,4.68,41.16,299.69
APS,pw,3,8,12,0,94.39,77.22,12,49,7,11,52.17,63.16,63,4.81,120.27,303.11
APS,pw,4,8,12,0,92.24,84.62,24,42,5,7,77.42,82.76,67,4.47,47.94,299.64
APS,pw,5,8,12,0,89.54,81.33,50,11,8,6,89.29,86.21,67,4.49,57.04,300.93
APS,rand,1,8,12,0,92.00,93.33,34,36,4,1,97.14,89.47,62,4.85,41.90,300.97
APS,rand,2,8,12,0,97.23,89.33,28,39,1,7,80.00,96.55,63,4.80,297.75,302.63
APS,rand,3,8,12,0,87.92,84.06,22,36,5,6,78.57,81.48,65,4.64,263.76,301.46
APS,rand,4,8,12,0,95.37,85.53,33,32,8,3,91.67,80.49,65,4.68,177.56,304.05
APS,rand,5,8,12,0,97.86,87.67,30,34,7,2,93.75,81.08,64,4.70,220.61,300.86
ANS,pw,2,8,12,0,92.18,70.97,47,19,27,0,100.00,63.51,61,4.47,88.82,272.68
ANS,pw,3,8,12,0,98.13,70.89,0,56,0,23,0.00,0.00,62,4.87,301.79,301.79
ANS,pw,4,8,12,0,87.27,73.08,17,40,7,14,54.84,70.83,63,4.39,29.14,276.36
ANS,pw,5,8,12,0,94.46,78.67,56,3,16,0,100.00,77.78,68,4.42,135.91,300.22
ANS,rand,1,8,12,0,96.31,86.67,32,33,7,3,91.43,82.05,64,4.74,261.05,303.53
ANS,rand,2,8,12,0,95.69,89.33,30,37,3,5,85.71,90.91,65,4.67,285.10,303.33
ANS,rand,3,8,12,0,94.56,88.41,23,38,3,5,82.14,88.46,65,4.66,144.14,303.03
ANS,rand,4,8,12,0,96.91,86.84,33,33,7,3,91.67,82.50,62,4.90,299.20,303.92
ANS,rand,5,8,12,0,97.25,84.93,29,33,8,3,90.62,78.38,66,4.60,183.77,303.48
Ext,pw,1,8,12,0,91.38,81.33,31,30,8,6,83.78,79.49,53,5.77,113.87,305.91
Ext,pw,2,8,12,0,85.02,62.37,47,11,35,0,100.00,57.32,52,5.81,39.72,302.30
Ext,pw,3,8,12,0,90.34,81.01,13,51,5,10,56.52,72.22,50,6.12,83.29,306.10
Ext,pw,4,8,12,0,85.09,75.64,16,43,4,15,51.61,80.00,54,5.58,38.53,301.44
Ext,pw,5,8,12,0,91.69,77.33,53,5,14,3,94.64,79.10,55,5.48,158.89,301.61
Ext,rand,1,8,12,0,96.31,92.00,33,36,4,2,94.29,89.19,50,6.18,239.12,308.93
Ext,rand,2,8,12,0,94.15,89.33,29,38,2,6,82.86,93.55,50,6.22,172.78,310.91
Ext,rand,3,8,12,0,90.63,85.51,25,34,7,3,89.29,78.12,52,5.83,51.15,303.04
Ext,rand,4,8,12,0,93.52,86.84,32,34,6,4,88.89,84.21,50,6.09,206.64,304.27
Ext,rand,5,8,12,0,94.19,89.04,28,37,4,4,87.50,87.50,52,5.77,161.67,300.24
Low,pw,1,8,12,0,92.00,70.67,37,16,22,0,100.00,62.71,53,5.73,112.75,303.66
Low,pw,2,8,12,0,95.44,93.55,45,42,4,2,95.74,91.84,54,5.57,300.63,300.63
Low,pw,3,8,12,0,93.77,83.54,11,55,1,12,47.83,91.67,50,6.11,200.47,305.41
Low,pw,4,8,12,0,76.40,75.64,19,40,7,12,61.29,73.08,53,5.76,32.97,305.17
Low,pw,5,8,12,0,92.92,77.33,46,12,7,10,82.14,86.79,55,5.50,286.91,302.74
Low,rand,1,8,12,0,94.77,92.00,32,37,3,3,91.43,91.43,50,6.14,288.04,307.21
Low,rand,2,8,12,0,90.46,89.33,32,35,5,3,91.43,86.49,50,6.04,137.25,301.81
Low,rand,3,8,12,0,95.47,82.61,24,33,8,4,85.71,75.00,50,6.04,178.77,301.89
Low,rand,4,8,12,0,91.67,85.53,34,31,9,2,94.44,79.07,51,5.89,223.32,300.37
Low,rand,5,8,12,0,94.80,87.67,26,38,3,6,81.25,89.66,51,5.94,273.57,302.83
Raw,pw,1,8,12,0,98.46,78.67,24,35,3,13,64.86,88.89,66,4.56,301.13,301.13
Raw,pw,2,8,12,0,91.53,65.59,22,39,7,25,46.81,75.86,64,4.70,74.58,301.02
Raw,pw,3,8,12,0,97.82,72.15,1,56,0,22,4.35,100.00,62,4.90,303.55,303.55
Raw,pw,4,8,12,0,92.55,62.82,9,40,7,22,29.03,56.25,61,4.48,48.29,273.24
Raw,pw,5,8,12,0,94.77,77.33,53,5,14,3,94.64,79.10,67,4.53,157.51,303.54
Raw,rand,1,8,12,0,97.23,89.33,32,35,5,3,91.43,86.49,61,4.93,290.92,300.91
Raw,rand,2,8,12,0,96.62,90.67,31,37,3,4,88.57,91.18,64,4.76,271.15,304.87
Raw,rand,3,8,12,0,90.33,85.51,24,35,6,4,85.71,80.00,63,4.81,56.17,303.23
Raw,rand,4,8,12,0,93.83,89.47,32,36,4,4,88.89,88.89,63,4.82,123.13,303.64
Raw,rand,5,8,12,0,96.64,84.93,30,32,9,2,93.75,76.92,65,4.68,271.51,304.03